City,Cloudiness,Country_code,Date,Humidity,Latitude,Longitude,Max Temp,Wind Speed
Lebu,92,ET,1554397531,66,8.96,38.73,15.51,1.72
Mar del Plata,0,AR,1554397531,42,-46.43,-67.52,17.96,8.97
Dikson,76,RU,1554397531,98,73.51,80.55,-6.44,4.52
Avarua,44,CK,1554395400,100,-21.21,-159.78,21.0,1.0
Carnarvon,64,ZA,1554397531,28,-30.97,22.13,18.26,5.67
Cape Town,20,ZA,1554397325,72,-33.93,18.42,18.33,5.1
Kruisfontein,88,ZA,1554397532,83,-34.0,24.73,18.51,10.52
Yellowknife,20,CA,1554397413,58,62.45,-114.38,-17.22,4.1
Hithadhoo,68,MV,1554397532,100,-0.6,73.08,29.11,1.22
Victoria,75,BN,1554395400,83,5.28,115.24,28.0,1.5
Saint Anthony,90,US,1554397224,70,43.97,-111.68,10.56,4.6
San Patricio,100,PY,1554397533,96,-26.98,-56.83,22.21,2.67
Rikitea,76,PF,1554397533,100,-23.12,-134.97,24.66,8.72
Bonthe,0,SL,1554397534,63,7.53,-12.5,30.21,3.12
Ocean City,75,US,1554397418,82,30.44,-86.61,22.0,3.1
Vaini,44,IN,1554397534,77,15.34,74.49,22.11,1.32
Flinders,90,AU,1554397505,100,-34.58,150.85,19.44,2.6
Constitucion,90,MX,1554397216,20,23.99,-104.67,20.0,1.0
Clyde River,20,CA,1554393600,60,70.47,-68.59,-13.0,1.0
Umm Lajj,0,SA,1554397535,78,25.02,37.27,22.41,3.87
Narsaq,40,GL,1554393000,42,60.91,-46.05,-2.0,3.6
Concordia,92,AR,1554397012,67,-31.4,-58.02,28.89,1.79
Hermanus,88,ZA,1554397325,89,-34.42,19.24,16.67,1.87
East London,0,ZA,1554393600,63,-33.02,27.91,19.0,9.8
Isangel,56,VU,1554397537,100,-19.55,169.27,26.51,5.87
Thompson,90,CA,1554393600,85,55.74,-97.86,-9.0,2.6
Lompoc,90,US,1554397249,87,34.64,-120.46,15.56,2.1
Barranca,0,PE,1554397537,92,-10.75,-77.76,21.01,3.72
Yarmouth,40,GB,1554397508,81,50.71,-1.5,8.33,8.7
Oktyabrskoye,0,RU,1554397517,62,56.73,85.44,0.0,2.0
Zhuhai,0,CN,1554393600,24,40.71,112.04,8.0,2.0
Mount Isa,0,AU,1554395400,44,-20.73,139.49,26.0,5.1
Mataura,92,NZ,1554397539,84,-46.19,168.86,6.41,2.17
Amarante,75,PT,1554397501,93,41.27,-8.08,10.0,8.2
Kavieng,76,PG,1554397540,100,-2.57,150.8,28.31,3.62
Coquimbo,0,CL,1554393600,68,-29.95,-71.34,19.0,5.7
Buala,32,SB,1554397540,94,-8.15,159.59,27.31,2.57
Punta Arenas,40,CL,1554396755,90,-53.16,-70.91,9.0,18.0
New Norfolk,20,AU,1554397514,70,-42.78,147.06,10.56,4.1
Mahibadhoo,0,MV,1554397541,100,3.78,72.97,29.01,1.97
Qujing,48,CN,1554397541,81,25.49,103.8,6.51,1.67
Ulaangom,92,MN,1554397264,76,49.98,92.07,-1.19,1.22
Kawalu,92,ID,1554397542,98,-7.38,108.21,20.06,0.97
Priyutnoye,44,RU,1554393600,81,46.1,43.51,5.56,3.13
Albany,1,US,1554397407,22,42.65,-73.75,8.89,9.8
Sao Joao da Barra,75,BR,1554393600,52,-21.64,-41.05,32.0,7.52
Ahipara,44,NZ,1554397543,100,-35.17,173.16,15.51,2.42
Butaritari,92,KI,1554397543,100,3.07,172.79,25.81,2.92
Belmonte,92,PT,1554397414,80,40.36,-7.35,8.33,2.68
Busselton,8,AU,1554397508,53,-33.64,115.35,10.0,7.27
Pisco,75,PE,1554393600,30,-13.71,-76.2,22.0,3.6
Jamestown,0,AU,1554397340,66,-33.21,138.6,15.81,3.62
Tuktoyaktuk,20,CA,1554393600,83,69.44,-133.03,-21.0,2.6
Kodiak,90,US,1554397426,57,39.95,-94.76,11.11,4.1
Sao Filipe,24,CV,1554397545,91,14.9,-24.5,21.91,8.72
Hokitika,88,NZ,1554397545,99,-42.72,170.96,13.46,6.92
Vartej,0,IN,1554397546,45,21.74,72.06,27.91,3.57
Manavgat,75,TR,1554394800,77,36.79,31.44,16.11,1.5
Provideniya,0,RU,1554397546,100,64.42,-173.23,-8.44,6.62
Ostrovnoy,88,RU,1554397546,96,68.05,39.51,-1.59,5.47
San Jeronimo,0,PE,1554393600,47,-13.65,-73.37,14.0,1.02
Port Augusta,0,AU,1554397235,29,-32.49,137.76,25.0,3.6
Bredasdorp,0,ZA,1554397309,64,-34.53,20.04,20.0,4.6
Kapaa,75,US,1554397283,68,22.08,-159.32,22.0,4.1
Miri,0,NG,1554397548,18,10.31,9.75,31.21,2.87
Ushuaia,75,AR,1554394920,80,-54.81,-68.31,4.0,7.7
Hilo,40,US,1554397466,82,19.71,-155.08,20.56,2.6
Paredon,12,BO,1554397549,78,-18.93,-65.16,15.91,1.17
Qaanaaq,64,GL,1554397549,88,77.48,-69.36,-14.59,6.52
Dashitou,20,CN,1554397549,41,43.3,128.5,1.01,6.27
Barrow,92,AR,1554397550,86,-38.31,-60.23,16.06,6.92
Chimbote,12,PE,1554397550,86,-9.08,-78.59,23.06,3.02
Talnakh,76,RU,1554397550,87,69.49,88.39,-6.84,1.77
Grindavik,75,IS,1554395400,93,63.84,-22.43,3.0,3.1
Sarkand,0,KZ,1554397551,86,45.41,79.91,7.56,0.72
Muroto,24,JP,1554397551,100,33.37,134.14,7.91,1.77
Port Alfred,36,ZA,1554397288,88,-33.59,26.89,18.89,4.47
Bandarbeyla,0,SO,1554397551,100,9.49,50.81,26.66,1.87
Brae,0,GB,1554394800,81,60.4,-1.35,8.0,11.3
Krasnyy Chikoy,88,RU,1554397552,41,50.36,108.75,-6.24,1.02
Tasiilaq,5,GL,1554393000,100,65.61,-37.64,-2.0,1.0
Diego de Almagro,80,CL,1554397552,72,-26.39,-70.05,21.16,1.62
Usakos,0,NA,1554397552,59,-22.0,15.59,20.36,1.22
Port Elizabeth,1,US,1554397551,22,39.31,-74.98,18.33,2.6
Trairi,88,BR,1554397553,100,-3.28,-39.27,26.41,2.77
Gujrat,20,PK,1554397200,61,32.57,74.07,25.0,2.1
Ilulissat,75,GL,1554393000,63,69.22,-51.1,-2.0,6.7
Port Lincoln,20,AU,1554397554,74,-34.72,135.86,20.36,8.97
Saint-Philippe,1,CA,1554397517,37,45.36,-73.48,2.78,5.7
Northam,20,GB,1554397524,81,51.04,-4.21,8.33,7.7
Ampanihy,0,MG,1554397555,42,-24.69,44.75,25.91,3.67
Bastia,75,IT,1554397545,66,44.6,8.98,11.67,2.6
Kahului,20,US,1554397432,64,20.89,-156.47,22.0,4.1
Castro,75,CL,1554393600,62,-42.48,-73.76,12.0,4.1
Ontario,90,US,1554397282,76,34.07,-117.65,17.78,1.32
Sarangani,8,PH,1554397557,100,5.4,125.46,27.31,5.42
Siuna,64,NI,1554397557,85,13.73,-84.78,25.41,1.87
Lavrentiya,0,RU,1554397557,86,65.58,-170.99,-9.29,8.37
Codrington,88,AU,1554397288,93,-28.95,153.24,17.0,0.5
Rome,75,IT,1554397444,87,41.89,12.48,15.0,8.2
Esperance,20,TT,1554397298,52,10.24,-61.45,31.67,7.2
Puerto Escondido,5,MX,1554392460,51,15.86,-97.07,29.0,3.6
Bluff,0,AU,1554397558,63,-23.58,149.07,20.06,4.57
Chupa,40,PE,1554393600,41,-15.11,-69.99,14.0,2.6
Georgetown,75,GY,1554393600,70,6.8,-58.16,31.0,7.2
Dombarovskiy,32,RU,1554397559,80,50.76,59.54,-1.34,1.52
Iqaluit,40,CA,1554396729,65,63.75,-68.52,-15.0,6.2
Marsabit,0,KE,1554397560,70,2.34,37.99,25.41,2.42
Hovd,0,NO,1554397517,49,63.83,10.7,8.0,5.1
Kaniama,44,CD,1554397326,78,-7.57,24.18,24.46,1.32
Cidreira,36,BR,1554397561,89,-30.17,-50.22,27.71,2.97
Ancud,75,CL,1554393600,62,-41.87,-73.83,12.0,4.1
Bethel,1,US,1554393360,67,60.79,-161.76,-6.0,8.7
Nanortalik,80,GL,1554397563,93,60.14,-45.24,-0.49,7.82
Dasoguz,0,TM,1554395400,51,41.84,59.97,15.0,4.1
Aklavik,90,CA,1554393600,77,68.22,-135.01,-14.0,1.5
Beloha,20,MG,1554397563,45,-25.17,45.06,27.56,5.82
Vlasotince,20,RS,1554395400,34,42.97,22.13,18.0,1.5
Santa Lucia,40,IT,1554397197,72,39.93,9.66,16.0,9.3
Amazar,68,RU,1554397564,82,53.86,120.88,-5.84,1.07
La Ronge,90,CA,1554393600,85,55.1,-105.3,-6.0,3.6
Pevek,8,RU,1554397565,64,69.7,170.27,-11.49,2.52
Sitka,0,US,1554397308,82,37.17,-99.65,12.22,4.47
Masumbwe,0,TZ,1554397566,84,-3.65,32.16,21.16,1.97
Pasighat,92,IN,1554397566,79,28.06,95.33,14.16,0.67
Eshowe,20,ZA,1554397566,67,-28.89,31.46,21.81,0.22
Airai,44,TL,1554397567,84,-8.93,125.41,18.96,0.47
Temple,40,US,1554397543,65,31.1,-97.34,26.67,7.2
Shingu,32,JP,1554397567,100,33.72,135.99,13.86,4.52
Gornyye Klyuchi,92,RU,1554397568,97,45.25,133.5,1.76,3.17
Pontal do Parana,40,BR,1554397421,74,-25.67,-48.51,30.0,2.1
Necochea,92,AR,1554396993,86,-38.55,-58.74,17.78,0.45
Cherskiy,0,RU,1554397568,47,68.75,161.3,-13.99,0.97
Paso de los Toros,75,UY,1554393600,62,-32.81,-56.52,30.0,7.2
Nuuk,75,GL,1554396728,47,64.17,-51.74,2.0,4.6
Dalhousie,0,IN,1554397569,64,32.54,75.98,9.96,0.97
Khatanga,76,RU,1554397569,85,71.98,102.47,-8.44,5.37
Vardo,1,US,1554397560,17,39.62,-77.74,18.89,3.6
Guerrero Negro,8,MX,1554397570,67,27.97,-114.04,18.56,3.57
High Level,90,CA,1554395580,78,58.52,-117.13,-12.0,4.1
Vanimo,48,PG,1554397570,97,-2.67,141.3,28.76,3.97
Kieta,88,PG,1554397571,100,-6.22,155.63,26.06,1.42
Broome,40,GB,1554397565,70,52.47,1.45,11.11,10.3
Hobart,20,AU,1554397394,70,-42.88,147.33,10.56,4.1
Santa Isabel do Rio Negro,20,BR,1554397572,59,-0.41,-65.02,33.26,1.52
Saskylakh,0,RU,1554397572,77,71.97,114.09,-8.89,3.67
Norman Wells,20,CA,1554393600,76,65.28,-126.83,-20.0,1.5
Berea,1,US,1554397561,45,41.37,-81.85,11.11,3.6
Rundu,48,NA,1554397573,39,-17.91,19.77,27.91,1.57
Nawa,0,IN,1554397573,24,27.02,75.0,27.01,4.92
Klaksvik,80,FO,1554396600,65,62.23,-6.59,7.0,7.2
Gat,0,SN,1554395400,50,14.69,-16.54,34.0,10.8
Aquiraz,75,BR,1554395888,74,-3.9,-38.39,28.0,3.1
Hukuntsi,36,BW,1554397574,50,-23.98,21.76,23.66,2.77
Venice,75,US,1554397569,54,27.1,-82.45,29.0,5.7
Akhmeta,90,GE,1554395400,81,42.03,45.21,10.0,0.5
Bocas del Toro,44,PA,1554397201,24,9.33,-82.25,19.44,4.02
Vao,0,EE,1554397575,78,59.1,26.19,3.91,2.52
Fairbanks,1,US,1554397450,47,64.84,-147.72,-8.33,4.1
Saint-Pierre,0,FR,1554397487,53,48.95,4.24,11.67,4.1
Itarema,92,BR,1554397576,100,-2.92,-39.92,23.71,2.67
Puerto Ayora,20,EC,1554396409,66,-0.74,-90.35,30.0,3.6
Souillac,20,FR,1554397539,46,45.6,-0.6,13.89,6.2
Bedesa,48,ET,1554397577,90,8.9,40.78,14.01,0.37
Ambon,75,FR,1554397531,66,47.55,-2.56,10.56,6.2
Quelimane,75,MZ,1554393600,94,-17.88,36.89,25.0,2.22
Fasa,20,IR,1554397200,63,28.94,53.65,18.0,2.1
San Quintin,76,PH,1554397578,84,17.54,120.52,22.06,1.52
Atuona,68,PF,1554397578,99,-9.8,-139.03,27.91,6.82
Aykhal,56,RU,1554397579,74,65.95,111.51,-9.14,1.67
Hasaki,20,JP,1554397475,75,35.73,140.83,8.0,0.5
Nikolskoye,0,RU,1554397533,32,59.7,30.79,11.0,4.0
Hualmay,12,PE,1554397579,73,-11.1,-77.61,23.76,2.12
Vyshkov,0,RU,1554395400,39,52.48,31.69,9.0,1.0
Tokur,0,RU,1554397580,66,53.13,132.9,-11.94,1.02
Kaitangata,92,NZ,1554397536,76,-46.28,169.85,7.22,3.58
Beira,90,ES,1554397556,93,43.2,-8.36,10.56,3.6
Totolapa,40,MX,1554392700,74,20.56,-97.48,26.0,2.07
Vila Franca do Campo,20,PT,1554397523,58,37.72,-25.43,15.0,8.2
Chifeng,0,CN,1554397402,31,42.27,118.96,2.26,4.32
Praia da Vitoria,75,PT,1554397308,67,38.73,-27.07,15.0,10.27
Puerto Colombia,20,CO,1554397215,52,10.99,-74.96,33.0,2.1
San Cristobal,40,EC,1554397251,82,-0.39,-78.55,16.0,4.6
Eftimie Murgu,0,RO,1554395400,31,44.88,22.1,16.0,9.8
Nishihara,0,JP,1554397425,57,35.74,139.53,13.33,3.6
Newtonmore,20,GB,1554397418,70,57.07,-4.12,8.33,4.6
Khani,75,GE,1554395400,100,41.96,42.96,8.0,2.1
Mitsamiouli,75,KM,1554393600,94,-11.38,43.28,26.0,6.2
Taksimo,68,RU,1554397584,64,56.36,114.84,-8.09,1.17
Kavaratti,0,IN,1554397584,100,10.57,72.64,28.76,1.02
Lorengau,32,PG,1554397584,99,-2.02,147.27,28.06,3.67
Ribeira Grande,40,PT,1554395400,51,38.52,-28.7,16.0,2.6
Saint George,40,GR,1554397402,66,39.45,22.34,14.0,4.1
Farafangana,56,MG,1554397585,100,-22.82,47.83,25.66,4.17
Leningradskiy,20,RU,1554397586,81,69.38,178.42,-15.64,3.87
Marzuq,44,YE,1554397586,56,14.4,46.47,19.41,1.32
Coro,24,VE,1554397586,77,11.41,-69.67,27.06,4.32
Mbini,32,GQ,1554397586,96,1.58,9.62,27.76,4.22
General Roca,0,AR,1554393600,34,-39.03,-67.58,19.0,6.2
Poronaysk,64,RU,1554397587,80,49.22,143.1,-2.14,4.37
Mindelo,75,PT,1554397262,93,41.31,-8.72,10.0,8.2
Pedra Branca,92,BR,1554397588,96,-5.46,-39.72,24.61,2.02
Los Llanos de Aridane,40,ES,1554397560,68,28.66,-17.92,19.0,9.8
Sao Felix do Xingu,88,BR,1554397588,79,-6.64,-51.99,28.26,1.22
Paamiut,80,GL,1554397385,94,61.99,-49.67,0.61,6.92
Salalah,0,OM,1554396600,74,17.01,54.1,27.0,2.1
Upernavik,80,GL,1554397589,95,72.79,-56.15,-5.44,5.47
Tilichiki,64,RU,1554397589,89,60.47,166.1,0.16,4.02
Qaqortoq,40,GL,1554393000,42,60.72,-46.03,-2.0,3.6
Lagoa,20,PT,1554397334,42,37.14,-8.45,17.0,11.8
Foam Lake,0,CA,1554397590,100,51.65,-103.53,8.76,2.52
Bambous Virieux,40,MU,1554397443,94,-20.34,57.76,25.56,0.5
Labytnangi,64,RU,1554397590,87,66.66,66.39,-2.19,4.82
Cayenne,100,GF,1554395400,74,4.94,-52.33,29.0,3.6
Torbay,40,CA,1554397468,52,47.66,-52.73,6.67,15.4
Champerico,40,MX,1554396600,45,16.38,-93.6,31.0,3.1
Tessalit,0,ML,1554397592,13,20.2,1.01,36.71,5.17
Huejuquilla el Alto,0,MX,1554397592,23,22.63,-103.9,23.11,1.87
Eirunepe,32,BR,1554397592,61,-6.66,-69.87,33.01,1.32
Cochrane,20,CL,1554393600,44,-47.25,-72.57,14.0,3.1
Nome,90,US,1554397476,94,30.04,-94.42,24.44,4.1
Beringovskiy,88,RU,1554397593,90,63.05,179.32,-5.84,5.22
Juazeiro,40,BR,1554393600,46,-9.43,-40.51,33.0,5.7
Alta Floresta,24,BR,1554397593,63,-9.87,-56.08,31.76,1.32
Camargo,36,MX,1554397594,12,27.69,-105.17,24.56,1.97
Port-Cartier,90,CA,1554397403,57,50.03,-66.88,-3.89,10.8
Pataias,75,PT,1554397531,81,39.67,-8.99,11.67,3.1
Boditi,88,ET,1554397594,80,6.95,37.86,16.96,1.92
Kurchum,24,KZ,1554397595,74,48.57,83.65,8.71,1.22
Vestmannaeyjar,75,IS,1554393600,70,63.44,-20.27,6.0,5.1
Nivala,92,FI,1554397579,91,63.93,24.96,1.11,0.89
Padang,76,ID,1554397595,100,-0.92,100.36,28.66,0.87
Chokurdakh,36,RU,1554397596,65,70.62,147.9,-12.94,2.12
Kurilsk,80,RU,1554397596,94,45.23,147.88,-0.99,8.47
Portland,90,US,1554397506,71,45.52,-122.67,11.11,1.42
Buluang,40,PH,1554393600,69,10.47,123.98,27.0,2.1
Vihti,64,FI,1554397504,65,60.42,24.32,8.89,2.57
Misratah,56,LY,1554397597,46,32.38,15.09,23.46,7.62
Benguela,8,AO,1554397333,96,-12.58,13.4,28.31,3.42
Itoman,75,JP,1554396754,82,26.12,127.67,20.0,6.7
Kautokeino,0,NO,1554397597,84,69.01,23.04,-6.84,1.97
Pangnirtung,5,CA,1554393600,65,66.15,-65.72,-16.0,1.5
Mantua,75,IT,1554397564,93,45.16,10.79,13.33,5.7
Lasa,40,CY,1554397255,82,34.92,32.53,16.0,1.5
Lingsugur,12,IN,1554397599,81,16.17,76.52,20.46,1.67
Marawi,0,PH,1554397235,87,8.0,124.29,23.33,2.24
High Rock,75,BS,1554397200,65,26.63,-78.28,27.0,6.2
Liwale,64,TZ,1554397599,46,-9.8,37.92,27.36,2.12
Pierre,90,US,1554397408,87,44.37,-100.35,7.22,8.2
Vila do Maio,20,CV,1554397600,88,15.13,-23.22,22.96,8.72
Mata,40,CU,1554396600,42,22.63,-79.93,30.0,7.7
Oum Hadjer,0,TD,1554397601,42,13.3,19.7,28.86,1.47
Saldanha,92,PT,1554397601,97,41.42,-6.55,5.46,4.47
Susanville,90,US,1554397395,70,40.42,-120.65,8.33,1.27
Ponta do Sol,44,BR,1554397601,91,-20.63,-46.0,26.61,2.42
Avera,1,US,1554397567,35,33.19,-82.53,23.33,4.6
Karpogory,12,RU,1554397602,68,64.0,44.44,2.66,3.92
Geraldton,5,CA,1554393600,37,49.72,-86.95,-6.0,1.62
Port-Gentil,40,GA,1554393600,84,-0.72,8.78,30.0,4.1
Shush,12,RU,1554397603,66,55.6,89.45,-6.19,2.42
Laguna,40,MX,1554392700,22,27.52,-110.01,25.0,1.67
Vytegra,0,RU,1554397603,67,61.01,36.45,-0.69,4.27
Grand Forks,1,US,1554397280,69,47.91,-97.06,2.0,7.2
Bahia Honda,0,CU,1554397604,54,22.9,-83.16,30.16,3.22
Cockburn Town,100,TC,1554397526,100,21.46,-71.14,23.86,7.67
Barcelos,75,PT,1554397409,93,41.53,-8.62,10.0,8.2
Hami,8,CN,1554397604,29,42.84,93.51,12.16,3.42
Mahon,40,IE,1554395400,100,51.89,-8.4,7.0,5.1
Christchurch,92,NZ,1554397458,100,-43.53,172.64,9.44,4.6
Igarka,68,RU,1554397605,86,67.47,86.57,-6.49,2.87
Nelson Bay,40,AU,1554397234,100,-32.72,152.14,20.0,3.1
Sosnogorsk,20,RU,1554397605,79,63.59,53.93,0.41,3.12
Dergachi,0,RU,1554397606,78,51.24,48.77,-1.79,1.32
Nainpur,20,IN,1554397606,40,22.43,80.11,26.66,4.02
Fortuna,75,ES,1554397518,51,38.18,-1.13,17.22,7.7
Tuatapere,88,NZ,1554397607,100,-46.13,167.69,9.31,5.12
Ojinaga,1,US,1554397230,15,29.56,-104.41,25.0,2.1
Dalvik,0,SE,1554397505,47,57.79,14.13,13.33,4.1
Jobner,20,IN,1554395400,21,26.97,75.39,32.0,1.22
Almaznyy,0,RU,1554395400,76,48.03,40.04,5.0,3.0
Saint-Francois,0,FR,1554397314,46,46.42,3.91,10.0,2.1
Farsund,0,NO,1554397494,50,58.09,6.8,12.78,5.36
Male,36,UA,1554397608,57,50.74,33.7,4.06,2.52
Port Macquarie,90,AU,1554397505,93,-31.43,152.91,17.78,3.6
Glamoc,92,BA,1554397383,91,44.05,16.85,7.86,4.57
Tiksi,0,RU,1554397609,64,71.64,128.87,-9.49,2.97
Tocache,92,PE,1554397609,89,-8.19,-76.51,18.91,0.87
Marsh Harbour,24,BS,1554397520,100,26.54,-77.06,24.01,7.97
Neiafu,40,TO,1554397200,100,-18.65,-173.98,23.0,4.27
Dekar,76,BW,1554397610,44,-21.53,21.93,25.76,1.32
Sarvar,0,HU,1554397215,37,47.25,16.94,19.0,7.2
Kenai,1,US,1554397564,46,60.55,-151.26,0.56,5.1
Bhadasar,12,IN,1554397611,43,28.3,74.31,26.31,4.02
Taoudenni,80,ML,1554397611,30,22.68,-3.98,30.66,7.17
Gold Coast,90,AU,1554397593,72,-28.0,153.41,20.0,3.6
Emba,40,CY,1554397255,82,34.81,32.42,16.0,1.5
Namatanai,92,PG,1554397612,100,-3.66,152.44,26.01,3.02
Sorochinsk,0,RU,1554397612,86,52.43,53.15,0.06,1.62
Ryotsu,0,JP,1554397612,84,38.08,138.43,11.21,11.12
Bowen,90,AU,1554397547,94,-20.01,148.25,24.44,5.7
Porto-Vecchio,0,FR,1554395400,54,41.59,9.28,13.0,8.7
Namanga,44,KE,1554397613,66,-2.55,36.79,21.31,4.37
Garissa,48,KE,1554397613,84,-0.46,39.64,24.76,0.97
Jutai,92,BR,1554397613,100,-1.71,-47.89,23.26,2.12
Margherita,90,IN,1554395400,94,27.29,95.67,20.0,2.6
Grand Gaube,40,MU,1554397443,94,-20.01,57.66,25.56,0.5
Sioux Lookout,40,CA,1554393600,36,50.1,-91.92,-2.0,4.6
Cravo Norte,0,CO,1554397614,33,6.3,-70.2,36.66,6.77
Deputatskiy,0,RU,1554397615,52,69.3,139.9,-20.74,1.17
San Juan,0,AR,1554397414,50,-31.54,-68.53,22.46,4.12
Bawku,24,GH,1554397617,70,11.06,-0.24,27.86,1.62
Abu Samrah,8,SY,1554397617,78,35.3,37.18,13.26,4.07
Camacha,40,PT,1554395400,59,33.08,-16.33,18.0,7.2
Caravelas,32,BR,1554397617,98,-17.73,-39.27,28.01,5.52
Namibe,0,AO,1554397618,100,-15.19,12.15,26.21,6.07
Pontes e Lacerda,12,BR,1554397618,72,-15.23,-59.33,31.31,3.87
Palafrugell,20,ES,1554397570,57,41.92,3.16,12.78,6.2
Doha,75,QA,1554395400,73,25.29,51.53,25.0,5.1
Beaufort,75,MY,1554395400,83,5.36,115.76,28.0,1.5
Kloulklubed,75,PW,1554393000,88,7.04,134.26,26.0,2.6
Pichucalco,75,MX,1554396000,74,17.51,-93.12,28.0,1.22
Umm Kaddadah,0,SD,1554397619,9,13.6,26.69,26.51,4.47
Ambilobe,12,MG,1554397620,79,-13.19,49.05,25.21,1.22
Altamira,90,BR,1554393600,78,-3.2,-52.21,28.0,3.1
Merauke,76,ID,1554397620,97,-8.49,140.4,26.51,1.47
Bubaque,8,GW,1554397620,74,11.28,-15.83,30.66,4.02
Foz,80,ES,1554397245,56,43.57,-7.26,10.56,5.36
Stepnyak,80,KZ,1554397621,89,52.83,70.79,1.51,3.32
Siocon,24,PH,1554397621,100,11.03,124.04,26.06,4.52
Broken Hill,0,AU,1554393600,37,-31.97,141.45,21.0,4.1
Srednekolymsk,48,RU,1554397622,90,67.46,153.71,-9.94,1.32
Husavik,92,CA,1554397528,51,50.56,-96.99,1.67,3.58
Dosso,0,NE,1554397623,16,13.05,3.19,37.16,3.02
Longyearbyen,75,NO,1554396600,73,78.22,15.63,-6.0,7.2
Langsa,44,ID,1554397547,96,4.47,97.97,21.36,0.97
Cervo,24,BR,1554397623,79,-22.19,-46.24,25.31,1.82
Ajaccio,20,FR,1554395400,62,41.93,8.74,13.0,1.5
Santa Cruz,90,US,1554397562,93,36.97,-122.03,15.0,2.1
Zelenoborsk,0,RU,1554397626,81,61.47,64.05,-3.84,1.12
Serpa,20,PT,1554393600,38,37.94,-7.6,16.0,7.7
Dolores,92,AR,1554397627,100,-36.31,-57.68,18.71,2.97
Arraial do Cabo,0,BR,1554393600,70,-22.97,-42.02,30.0,9.3
Tura,0,IN,1554397628,76,25.52,90.21,21.16,4.47
Berlevag,75,NO,1554396600,100,70.86,29.09,0.0,6.2
Nouadhibou,20,MR,1554397200,64,20.93,-17.03,21.0,8.7
Zhigansk,44,RU,1554397628,74,66.77,123.37,-8.34,1.17
Koslan,0,RU,1554397629,68,63.46,48.9,1.61,3.47
Wanning,20,AT,1554397625,34,48.64,13.53,18.0,7.2
Bud,0,NO,1554397324,43,62.91,6.91,10.0,5.7
Kirkwood,20,ZA,1554393600,77,-33.4,25.44,19.0,13.4
Severo-Kurilsk,92,RU,1554397630,97,50.68,156.12,-0.09,2.07
Mehamn,40,NO,1554396600,68,71.03,27.85,0.0,3.1
Westport,40,IE,1554397625,70,53.8,-9.52,7.22,2.6
Rajampet,0,IN,1554397479,42,14.19,79.16,25.71,2.12
Anadyr,0,RU,1554396755,84,64.73,177.51,-13.0,1.0
Shenzhen,40,CN,1554397606,69,22.54,114.05,23.33,5.1
Penzance,40,GB,1554397500,70,50.12,-5.53,10.56,3.6
Staroshcherbinovskaya,0,RU,1554397484,86,46.63,38.66,6.16,5.87
Wanaka,64,NZ,1554397633,100,-44.7,169.14,2.01,1.07
Shahpur,68,IN,1554397633,41,22.19,77.91,24.66,2.22
Kolvereid,40,NO,1554397502,98,64.86,11.6,6.0,5.7
Tecolutilla,75,MX,1554396000,74,18.28,-93.32,28.0,2.07
Tigre,90,AR,1554397503,88,-34.42,-58.58,20.56,6.2
Denpasar,75,ID,1554395400,83,-8.65,115.22,28.0,4.1
Katsuura,40,JP,1554393600,70,33.93,134.5,8.0,2.1
Belyy Yar,0,RU,1554395400,40,53.6,91.39,1.0,1.0
Fort Nelson,90,CA,1554393600,78,58.81,-122.69,-12.0,3.1
Candolim,40,IN,1554393600,74,15.52,73.76,28.0,2.1
Oussouye,0,SN,1554393600,54,12.49,-16.54,27.0,4.1
Rybachiy,75,RU,1554395400,68,48.71,44.74,3.0,6.0
Luwuk,24,ID,1554397636,100,-0.95,122.79,25.11,0.77
Bojnurd,0,IR,1554397200,81,37.47,57.33,11.0,2.1
Dingle,0,PH,1554397636,74,11.0,122.67,24.86,3.27
Mount Gambier,36,AU,1554393600,42,-37.83,140.78,20.0,5.1
Chuy,32,UY,1554397637,85,-33.69,-53.46,27.46,2.82
Severobaykalsk,68,RU,1554397637,83,55.65,109.32,-9.74,0.77
Holme,75,GB,1554397636,87,53.7,-2.31,9.44,8.2
Gigmoto,92,PH,1554397638,100,13.78,124.39,23.46,2.52
Floro,0,NO,1554397206,58,61.6,5.03,13.0,2.1
Hamilton,75,CA,1554397336,37,43.26,-79.87,5.56,2.1
Springbok,20,ZA,1554397639,63,-29.67,17.88,16.31,5.57
Tarbagatay,64,RU,1554395400,62,51.48,107.36,-5.0,1.0
Kushiro,0,JP,1554397639,67,43.11,144.15,-9.34,1.07
Koumac,0,NC,1554397640,98,-20.56,164.28,22.61,3.22
Prince Rupert,90,CA,1554397140,70,54.32,-130.32,8.0,5.7
Wanlaweyn,0,SO,1554397640,66,2.62,44.89,28.26,5.67
Port Blair,0,IN,1554397640,100,11.67,92.75,29.01,0.87
Ponta Delgada,20,PT,1554397583,58,37.73,-25.67,15.0,8.2
Sainte-Maxime,0,FR,1554397546,33,43.31,6.64,16.0,7.7
Daru,0,SL,1554397642,58,7.99,-10.85,31.66,3.72
Huangnihe,76,CN,1554397642,44,43.56,128.02,2.31,5.02
Kaiyuan,0,CN,1554397642,49,42.54,124.04,2.56,5.52
Walvis Bay,0,NA,1554397333,64,-22.95,14.51,20.0,4.1
Shihezi,36,CN,1554397643,59,44.3,86.03,12.41,3.02
Guararapes,12,BR,1554397643,65,-21.25,-50.65,31.91,4.02
Lobito,0,AO,1554397643,65,-12.35,13.55,26.96,0.77
Manicore,75,BR,1554393600,62,-5.81,-61.3,32.0,1.5
Santa Maria del Oro,0,MX,1554397643,19,25.95,-105.37,22.01,2.17
Kayes,0,ML,1554397644,28,14.44,-11.44,36.66,5.32
Ust-Maya,32,RU,1554397644,80,60.42,134.54,-8.84,2.32
Adrar,75,DZ,1554393600,64,27.87,-0.29,20.0,13.9
San Andres,88,PH,1554397645,100,13.32,122.68,25.56,3.77
Bathsheba,40,BB,1554393600,55,13.22,-59.52,30.0,11.3
Sorong,0,ID,1554397646,100,-0.86,131.25,27.26,1.67
Ishigaki,92,JP,1554397646,100,24.34,124.16,21.51,5.27
Tefe,40,BR,1554393600,79,-3.35,-64.71,30.0,3.1
Halifax,40,CA,1554397440,35,44.65,-63.58,5.56,18.5
Nemuro,0,JP,1554397646,92,43.32,145.57,1.41,4.82
Voh,80,NC,1554397647,100,-20.95,164.69,24.66,6.92
Vila Velha,75,BR,1554395888,74,-3.71,-38.6,28.0,3.1
Sola,0,NO,1554397503,76,58.89,5.65,16.0,5.1
Haines Junction,76,CA,1554397648,81,60.75,-137.51,-6.89,1.17
Luderitz,0,NA,1554397621,72,-26.65,15.16,17.06,9.32
Muscatine,75,US,1554397617,71,41.42,-91.04,11.0,8.7
Tazovskiy,0,RU,1554397648,66,67.47,78.7,-10.74,1.47
Chumikan,56,RU,1554397649,72,54.72,135.31,-5.69,2.22
Mayo,20,CA,1554393600,39,63.59,-135.9,-13.0,4.6
Bumba,32,CD,1554397649,90,2.18,22.47,24.51,1.67
Orangeville,20,CA,1554397405,40,43.92,-80.1,5.56,5.1
Najran,75,SA,1554393600,28,17.54,44.22,29.0,7.7
Newport,75,GB,1554397626,86,51.59,-3.0,7.78,8.7
Hay River,40,CA,1554393600,70,60.82,-115.79,-18.0,2.1
Buchanan,20,LR,1554395400,55,5.88,-10.05,33.0,6.7
Naro,75,IT,1554397503,82,37.29,13.79,15.0,4.1
Biltine,0,TD,1554397652,34,14.53,20.93,27.01,2.27
Kayerkan,76,RU,1554397652,89,69.35,87.76,-6.39,2.52
Bilma,8,NE,1554397653,16,18.69,12.92,30.26,1.32
Karratha,24,AU,1554397653,84,-20.74,116.85,23.26,1.67
General Artigas,75,PY,1554393600,66,-26.93,-56.22,30.0,6.7
Waipawa,68,NZ,1554397576,89,-39.94,176.59,8.33,0.57
Alice Springs,0,AU,1554395400,34,-23.7,133.88,18.0,3.77
Ovsyanka,0,RU,1554397654,56,53.58,126.91,-4.34,1.62
Sokolo,0,ML,1554397654,21,14.74,-6.12,38.26,3.37
Nueva Guinea,36,NI,1554397541,57,11.69,-84.46,30.01,3.67
Shache,12,CN,1554397370,27,38.42,77.24,20.0,1.07
Ferme-Neuve,36,CA,1554397655,51,46.7,-75.45,-2.84,5.72
Comodoro Rivadavia,0,AR,1554393600,25,-45.87,-67.48,19.0,7.2
Sungaipenuh,68,ID,1554397655,96,-2.08,101.38,19.11,0.62
Ketchikan,90,US,1554396960,87,55.34,-131.65,8.0,5.1
Gizo,0,IL,1554397640,77,31.8,34.94,17.22,3.1
Vredendal,92,ZA,1554397656,94,-31.68,18.49,14.81,1.32
Taltal,20,CL,1554397656,75,-25.41,-70.49,19.41,1.42
Paoua,0,CF,1554397657,47,7.24,16.43,28.46,2.22
Kurduvadi,64,IN,1554397657,65,18.09,75.41,23.51,4.57
Ashcroft,75,AU,1554397640,93,-33.91,150.9,19.44,8.2
Panama City,40,US,1554397616,60,30.16,-85.65,24.0,5.1
Paita,0,PE,1554393600,290,-5.09,-81.11,17.0,4.27
Kidal,68,ML,1554397658,12,18.44,1.41,37.16,3.17
Den Helder,90,NL,1554397628,75,52.96,4.76,10.0,3.1
Boysun,88,UZ,1554397658,96,38.2,67.2,5.56,1.17
Rantepao,80,ID,1554397511,100,-2.97,119.9,20.26,0.82
Panjab,68,AF,1554397659,90,34.38,67.02,-0.74,0.42
Tucurui,92,BR,1554397438,94,-3.77,-49.67,25.71,1.07
Helong,92,CN,1554397659,98,25.94,116.13,14.96,1.17
Mikhaylovka,88,RU,1554397659,73,52.96,103.29,-2.64,1.72
Khorixas,0,NA,1554397660,48,-20.37,14.96,25.31,2.77
Barauna,36,BR,1554397660,92,-14.07,-42.49,26.31,0.07
Te Anau,92,NZ,1554397660,98,-45.41,167.72,3.76,1.67
Cascais,75,PT,1554397501,62,38.7,-9.42,15.0,5.7
Kijang,44,KR,1554397661,31,35.24,129.21,8.21,2.62
Vagur,20,FO,1554397661,96,61.47,-6.81,7.66,13.57
Kaabong,8,UG,1554397661,52,3.51,34.14,24.46,4.32
Villamontes,20,BO,1554393600,62,-21.26,-63.47,31.0,1.07
Samarai,92,PG,1554397662,100,-10.62,150.67,25.61,4.27
Natal,20,BR,1554393600,70,-5.81,-35.21,30.0,4.6
Tupik,80,RU,1554397662,84,54.43,119.94,-6.19,1.07
Kem,8,UG,1554397662,39,2.68,33.77,28.26,5.47
Riverton,75,US,1554397313,73,43.02,-108.38,12.78,7.2
Quang Ngai,68,VN,1554397663,97,15.12,108.8,20.76,0.92
Boyolangu,64,ID,1554397663,95,-8.09,111.9,21.91,0.87
Camiri,0,BO,1554393600,57,-20.04,-63.52,27.0,2.6
Makakilo City,1,US,1554397297,77,21.35,-158.09,23.0,2.1
Rio Gallegos,20,AR,1554393600,73,-51.62,-69.22,11.0,15.4
Inhambane,0,MZ,1554393600,69,-23.87,35.38,26.0,3.77
Oparino,0,RU,1554397664,81,59.85,48.28,-1.84,1.07
Verkhnevilyuysk,44,RU,1554397665,84,63.45,120.31,-5.09,1.22
Saint-Joseph,0,FR,1554397546,21,43.56,6.97,16.0,4.1
Hoquiam,90,US,1554397626,87,46.98,-123.89,13.33,4.1
Karagay,0,RU,1554397666,69,58.27,54.93,-6.64,1.22
Beidao,0,CN,1554397666,53,34.57,105.89,4.56,1.22
Hjelset,0,NO,1554397324,43,62.78,7.5,10.0,5.7
Pitsunda,20,GE,1554395400,65,43.16,40.34,8.0,2.0
Ramganj Mandi,12,IN,1554397667,39,24.65,75.94,24.26,0.72
Komsomolsk,0,RU,1554395400,48,57.03,40.38,5.0,4.02
Antalaha,48,MG,1554397667,93,-14.9,50.28,25.46,2.87
Faanui,76,PF,1554397668,99,-16.48,-151.75,29.36,3.87
Kalmunai,0,LK,1554397668,91,7.42,81.82,23.76,1.97
Tabou,48,CI,1554397668,97,4.42,-7.36,29.31,7.62
Palamos,20,ES,1554397570,57,41.85,3.13,12.78,6.2
Beyla,64,GN,1554397669,62,8.69,-8.65,28.81,2.07
Alofi,88,NU,1554393600,100,-19.06,-169.92,22.0,2.1
Leninogorsk,20,RU,1554397669,92,54.6,52.45,0.66,3.77
Sinnamary,92,GF,1554397669,90,5.38,-52.96,27.56,4.32
Cheyenne,1,US,1554397418,43,41.14,-104.82,15.0,5.1
Portree,0,GB,1554397218,67,57.41,-6.19,9.44,4.02
Alugan,88,PH,1554397670,100,12.22,125.48,25.16,4.42
Stillwater,1,US,1554397526,82,36.12,-97.06,18.33,1.5
Beroroha,36,MG,1554397670,56,-21.68,45.17,27.01,2.87
Okhotsk,88,RU,1554397671,76,59.36,143.24,-1.04,3.22
Kaupanger,0,NO,1554396600,57,61.18,7.24,9.0,6.7
Ayan,76,TR,1554397671,57,40.67,33.6,5.56,0.82
Mackay,90,CA,1554394080,92,53.65,-115.58,0.0,2.1
Awjilah,76,LY,1554397672,30,29.14,21.3,20.61,1.27
Juneau,90,US,1554395400,86,58.3,-134.42,3.0,5.1
Touros,40,BR,1554393600,74,-5.2,-35.46,30.0,6.2
Sangar,24,RU,1554397673,75,63.92,127.47,-7.99,1.22
Hobyo,68,SO,1554397673,86,5.35,48.53,26.96,4.67
Zhanaozen,0,KZ,1554397673,80,43.35,52.85,8.16,3.57
Kampot,40,KH,1554395400,94,10.62,104.18,26.0,0.5
Acapulco,5,MX,1554392760,51,16.86,-99.88,30.0,1.0
Prigorodnyy,0,RU,1554395400,76,47.93,40.05,5.0,3.0
Tiznit,100,MA,1554397439,100,29.7,-9.73,14.81,2.77
Hambantota,0,LK,1554397674,100,6.12,81.12,27.61,1.77
Maldonado,40,UY,1554393600,69,-34.91,-54.96,25.0,4.6
Tricase,75,IT,1554397469,82,39.93,18.36,14.44,6.2
Pemba,0,MZ,1554397675,100,-12.97,40.52,28.41,4.47
Tongren,0,CN,1554397675,93,27.72,109.18,7.16,1.07
Arima,20,TT,1554397298,52,10.64,-61.28,31.67,7.2
San Carlos de Bariloche,20,AR,1554393600,50,-41.13,-71.31,12.0,12.9
Kyren,88,RU,1554397676,86,51.68,102.13,-6.49,1.12
Pangoa,88,PE,1554397676,81,-12.12,-73.0,24.61,1.27
Ban Dung,20,TH,1554397677,90,17.7,103.25,22.46,0.82
Krasnoyarsk,0,RU,1554395400,62,56.01,92.87,-5.0,1.17
Lata,0,IN,1554397677,96,30.78,78.62,7.91,1.07
Araouane,12,ML,1554397677,16,18.9,-3.53,37.16,4.97
Sorland,0,NO,1554396600,55,67.67,12.69,3.0,6.2
Mabaruma,56,GY,1554397678,75,8.2,-59.78,27.86,3.77
Yankton,90,US,1554397448,93,42.87,-97.4,6.11,5.1
Tallahassee,75,US,1554397475,50,30.44,-84.28,26.67,5.1
Huarmey,0,PE,1554397678,64,-10.07,-78.15,25.16,1.82
Jiuquan,0,CN,1554397678,51,39.73,98.49,-2.34,2.07
Atasu,92,KZ,1554397679,96,48.68,71.64,10.61,4.42
Riyadh,75,SA,1554393600,34,24.63,46.72,28.0,4.1
Mtsamboro,0,YT,1554395400,94,-12.7,45.07,27.0,0.5
Yumen,0,CN,1554397679,27,40.29,97.04,9.51,5.67
Kondoa,80,TZ,1554397680,68,-4.91,35.78,21.91,3.67
Tarauaca,80,BR,1554397645,82,-8.16,-70.77,28.76,2.32
Anahuac,90,US,1554397654,83,29.77,-94.68,25.56,5.1
Mugumu,48,TZ,1554397680,95,-1.84,34.67,16.86,1.02
Zlobin,75,HR,1554397507,51,45.29,14.65,17.0,8.2
Luanda,20,AO,1554393600,79,-8.83,13.24,30.0,5.7
Luangwa,68,MZ,1554397681,42,-15.62,30.4,26.96,3.82
Bafq,0,IR,1554397681,23,31.6,55.4,17.86,2.07
Gondanglegi,64,ID,1554397681,95,-7.75,112.01,21.91,0.87
Vanavara,48,RU,1554397682,68,60.35,102.28,-5.19,2.67
Petropavlovsk-Kamchatskiy,75,RU,1554393600,80,53.05,158.65,2.0,4.0
Murchison,0,AU,1554396990,70,-36.62,145.22,16.67,4.82
Ugep,48,NG,1554397683,88,5.81,8.08,26.61,3.32
Mendi,0,ET,1554397683,38,9.8,35.1,21.01,1.77
Kudahuvadhoo,0,MV,1554397683,100,2.67,72.89,28.56,2.02
Half Moon Bay,90,US,1554397562,71,37.46,-122.43,15.0,3.1
